[
	{
		"title": "Sebastopol, CA",
		"lat": 38.3984616,
		"lng": -122.8449622,
		"description": "<p>My home town Sebastopol /səˈbæstəpoʊl/ or /səˈbæstəpuːl/ is a city in Sonoma County, California, United States, approximately 52 mi north of San Francisco.</p>"
	},
	{
		"title": "Yelapa, Mexico",
		"lat": 20.4873306,
		"lng": -105.460318,
		"description": "<p>Yelapa is a small beach town in Cabo Corrientes, Jalisco, Mexico. The village lies in the southernmost cove of the world's seventh largest bay, Bahía de Banderas.</p>"
	},
	{
		"title": "Birch Bay, WA",
		"lat": 48.91952,
		"lng": -122.8326765,
		"description": "<p>Birch Bay is a census-designated place in Whatcom County, Washington, United States. Birch Bay is a protected bay located between Semiahmoo Bay and Lummi Bay.</p>"
	},
	{
		"title": "Petoskey, MI",
		"lat": 45.3649797,
		"lng": -85.1531165,
		"description": "<p>Petoskey is a city and coastal resort community in the U.S. state of Michigan. The population was 5,670 at the 2010 census. It is the county seat of Emmet County.</p>"
	},
	{
		"title": "Portland, OR",
		"lat": 45.542575,
		"lng": -122.9346024,
		"description": "<p>Portland, Oregon’s largest city, sits on the Columbia and Willamette rivers, in the shadow of snow-capped Mount Hood. It’s known for its parks, bridges and bicycle paths, as well as for its eco-friendliness and its microbreweries and coffeehouses. Iconic Washington Park encompasses sites from the formal Japanese Garden to Oregon Zoo and its railway. The city hosts thriving art, theater and music scenes.</p>"
	},
	{
		"title": "Nelson, BC, Canada",
		"lat": 49.4954508,
		"lng": -117.3230094,
		"description": "<p>Nelson is a city located in the Selkirk Mountains on the extreme West Arm of Kootenay Lake in the Southern Interior of British Columbia, Canada.</p>"
	},
	{
		"title": "Washington, DC",
		"lat": 38.8995322,
		"lng": -77.1546503,
		"description": "<p>Washington, DC, the U.S. capital, is a compact city on the Potomac River, bordering the states of Maryland and Virginia. It’s defined by imposing neoclassical monuments and buildings – including the iconic ones that house the federal government’s 3 branches: the Capitol, White House and Supreme Court. It's also home to iconic museums and performing-arts venues such as the Kennedy Center.</p>"
	},
	{
		"title": "Seattle, WA",
		"lat": 47.6149943,
		"lng": -122.4759887,
		"description": "<p>Seattle, a city on Puget Sound in the Pacific Northwest, is surrounded by water, mountains and evergreen forests, and contains thousands of acres of parkland. Washington State’s largest city, it’s home to a large tech industry, with Microsoft and Amazon headquartered in its metropolitan area. The futuristic Space Needle, a 1962 World’s Fair legacy, is its most iconic landmark.</p>"
	},
	{
		"title": "Patricks Point, CA",
		"lat": 41.1236405,
		"lng": -124.225598,
		"description": "<p>Patricks Point is an unincorporated community in Humboldt County, California. It is located 4.5 miles north of Trinidad, at an elevation of 239 feet.</p>"
	},
	{
		"title": "Hood River, OR",
		"lat": 45.7061493,
		"lng":-121.6009509,
		"description": "<p>The city of Hood River is the seat of Hood River County, Oregon, United States. It is a port on the Columbia River, and is named for the nearby Hood River. </p>"
	},
	{
		"title": "Chicago, IL",
		"lat": 41.8339043,
		"lng": -88.0123377,
		"description": "<p>Chicago, on Lake Michigan in Illinois, is among the largest cities in the U.S. Famed for its bold architecture, it has a skyline punctuated by skyscrapers such as the iconic John Hancock Center, 1,451-ft. Willis Tower (formerly the Sears Tower) and the neo-Gothic Tribune Tower. The city is also renowned for its museums, including the Art Institute of Chicago with its noted Impressionist and Post-Impressionist works.</p>"
	},
	{
		"title": "Stanislaus National Forest, Tuolumne County, CA",
		"lat": 38.2341393,
		"lng": -120.1788854,
		"description": "<p>Stanislaus National Forest is a United States national forest which manages 898,099 acres (1,403.3 sq mi; 3,634.5 km2) of land in four counties in the Sierra Nevada Mountains of Northern California. It was established on February 22, 1897, making it one of the oldest national forests. It was named after the Stanislaus River.</p>"
	}
]